站號,站名,日期,lat,lon,BlastDT3
12J990,口湖工作站,2025-01-20,23.589978,120.180394,False
12Q970,東港工作站,2025-01-20,22.479997,120.466058,False
12Q980,恆春工作站,2025-01-20,22.079678,120.714425,False
42HA10,萬大發電廠,2025-01-20,23.978875,121.139639,False
466881,新北,2025-01-20,24.959207,121.525196,False
466900,淡水,2025-01-20,25.164889,121.448906,False
466910,鞍部,2025-01-20,25.182586,121.529731,False
466920,臺北,2025-01-20,25.037658,121.514853,False
466930,竹子湖,2025-01-20,25.162078,121.544547,False
466940,基隆,2025-01-20,25.133314,121.740475,False
466950,彭佳嶼,2025-01-20,25.627975,122.079744,False
466990,花蓮,2025-01-20,23.975128,121.613275,False
467050,新屋,2025-01-20,25.006725,121.047492,False
467080,宜蘭,2025-01-20,24.763975,121.756528,False
467110,金門,2025-01-20,24.407306,118.289281,False
467270,田中,2025-01-20,23.873803,120.581286,True
467280,後龍,2025-01-20,24.648563,120.831834,False
467290,古坑,2025-01-20,23.633639,120.551889,True
467300,東吉島,2025-01-20,23.25727,119.66762,False
467350,澎湖,2025-01-20,23.565503,119.563094,False
467410,臺南,2025-01-20,22.99328,120.20492,False
467420,永康,2025-01-20,23.038386,120.2367,False
467441,高雄,2025-01-20,22.730432,120.312516,True
467480,嘉義,2025-01-20,23.495925,120.432906,True
467490,臺中,2025-01-20,24.145736,120.684075,False
467530,阿里山,2025-01-20,23.508208,120.813242,False
467540,大武,2025-01-20,22.35572,120.90374,False
467550,玉山,2025-01-20,23.48718,120.95943,False
467571,新竹,2025-01-20,24.827853,121.014219,False
467590,恆春,2025-01-20,22.003897,120.746339,False
467610,成功,2025-01-20,23.097486,121.373428,False
467620,蘭嶼,2025-01-20,22.0369,121.55843,False
467650,日月潭,2025-01-20,23.881325,120.90805,False
467660,臺東,2025-01-20,22.752211,121.154586,False
467990,馬祖,2025-01-20,26.169467,119.923158,False
72AI40,桃改樹林分場,2025-01-20,24.944503,121.386972,False
72C440,桃園農改場,2025-01-20,24.950944,121.030583,False
72D080,桃改五峰分場,2025-01-20,24.612194,121.157167,False
72D680,桃改新埔分場,2025-01-20,24.834444,121.066111,False
72G600,臺中農改場,2025-01-20,24.003028,120.534389,True
72HA00,中改埔里分場,2025-01-20,23.903208,120.963364,False
72K220,南改斗南分場,2025-01-20,23.634556,120.477333,True
72M360,南改義竹分場,2025-01-20,23.360694,120.279361,True
72M700,南改鹿草分場,2025-01-20,23.416869,120.283061,False
72N100,臺南農改場,2025-01-20,23.0605,120.342194,True
72N240,七股研究中心,2025-01-20,23.081672,120.062894,False
72Q010,高雄農改場,2025-01-20,22.709333,120.525889,True
72S200,東改班鳩分場,2025-01-20,22.829528,121.077694,False
72S590,東改賓朗果園,2025-01-20,22.813889,121.071278,False
72T250,花蓮農改場,2025-01-20,23.975222,121.563889,False
72U480,花改蘭陽分場,2025-01-20,24.686306,121.716583,False
72V140,高改旗南分場,2025-01-20,22.857861,120.516667,True
82A750,茶改北部分場,2025-01-20,24.955778,121.631222,False
82C160,茶改場,2025-01-20,24.908472,121.185333,False
82H320,茶改中部分場,2025-01-20,23.875611,120.913583,False
82H840,茶改南部分場,2025-01-20,23.762528,120.7405,True
82S580,茶改東部分場,2025-01-20,22.907694,121.130139,False
A2C560,農工中心,2025-01-20,24.985917,121.239833,False
A2K360,水試臺西試驗場,2025-01-20,23.717231,120.190522,False
A2K630,臺大雲林校區,2025-01-20,23.730628,120.423903,False
A2N290,臺南蘭花園區,2025-01-20,23.340258,120.379661,True
B2E890,畜試北區分所,2025-01-20,24.527806,120.770972,False
B2N890,畜產試驗所,2025-01-20,23.058972,120.336406,True
B2Q810,畜試南區分所,2025-01-20,21.945583,120.802167,False
B2U990,畜試東區分所,2025-01-20,24.669039,121.832561,False
C0A520,山佳,2025-01-20,24.974944,121.402008,False
C0A530,坪林,2025-01-20,24.938183,121.70975,False
C0A550,泰平,2025-01-20,24.971197,121.823711,False
C0A570,桶後,2025-01-20,24.848222,121.597992,False
C0A640,石碇,2025-01-20,24.993969,121.662917,False
C0A770,科教館,2025-01-20,25.096356,121.516507,False
C0A860,大坪,2025-01-20,25.165914,121.632969,False
C0A870,五指山,2025-01-20,25.132153,121.608692,False
C0A890,雙溪,2025-01-20,25.036003,121.864242,True
C0A931,三和,2025-01-20,25.233153,121.595236,False
C0A940,金山,2025-01-20,25.223628,121.643967,False
C0A950,鼻頭角,2025-01-20,25.129036,121.923372,False
C0A970,三貂角,2025-01-20,25.007606,122.002058,False
C0A980,社子,2025-01-20,25.109508,121.469681,False
C0A9C0,天母,2025-01-20,25.117494,121.537169,False
C0A9F0,內湖,2025-01-20,25.079422,121.57545,True
C0AC40,大屯山,2025-01-20,25.175675,121.522408,False
C0AC60,三峽,2025-01-20,24.939025,121.369728,False
C0AC70,信義,2025-01-20,25.037822,121.564597,False
C0AC80,文山,2025-01-20,25.00235,121.575728,False
C0ACA0,新莊,2025-01-20,25.051478,121.446756,False
C0AD10,八里,2025-01-20,25.150211,121.403947,False
C0AD30,蘆洲,2025-01-20,25.086594,121.472331,False
C0AD40,土城,2025-01-20,24.973208,121.445169,False
C0AD50,鶯歌,2025-01-20,24.951533,121.346294,False
C0AG80,中和,2025-01-20,24.991622,121.491792,False
C0AH00,汐止,2025-01-20,25.066881,121.658778,False
C0AH10,永和,2025-01-20,25.01125,121.508111,False
C0AH30,五分山,2025-01-20,25.07125,121.780794,False
C0AH40,平等,2025-01-20,25.129142,121.577086,False
C0AH50,林口,2025-01-20,25.072181,121.38084,False
C0AH70,松山,2025-01-20,25.04871,121.55042,False
C0AH80,深坑,2025-01-20,25.002703,121.628328,True
C0AH90,福山植物園,2025-01-20,24.760717,121.58135,False
C0AI00,五股,2025-01-20,25.07445,121.42728,False
C0AI10,屈尺,2025-01-20,24.92184,121.54475,False
C0AI20,白沙灣,2025-01-20,25.283128,121.519058,False
C0AI30,三重,2025-01-20,25.057328,121.500629,False
C0AI40,石牌,2025-01-20,25.115597,121.513139,False
C0AJ20,野柳,2025-01-20,25.20703,121.690021,False
C0AJ30,淡水觀海,2025-01-20,25.184591,121.408616,False
C0AJ40,石門,2025-01-20,25.273672,121.601198,False
C0AJ50,水湳洞,2025-01-20,25.123695,121.862238,False
C0AJ60,六塊厝,2025-01-20,25.24,121.4481,False
C0AJ70,田寮,2025-01-20,25.2698,121.4886,False
C0AJ80,板橋,2025-01-20,25.0107,121.4489,False
C0AJ90,澳底,2025-01-20,25.0552,121.9253,False
C0B010,七堵,2025-01-20,25.094819,121.71713,False
C0B020,基隆嶼,2025-01-20,25.19141,121.78391,False
C0B040,大武崙,2025-01-20,25.166676,121.706993,False
C0B050,八斗子,2025-01-20,25.144754,121.79167,False
C0B060,暖暖,2025-01-20,25.0957,121.7403,False
C0C460,復興,2025-01-20,24.820208,121.352281,False
C0C480,桃園,2025-01-20,24.992425,121.323172,False
C0C490,八德,2025-01-20,24.928708,121.283289,False
C0C590,觀音,2025-01-20,25.027072,121.153317,False
C0C620,蘆竹,2025-01-20,25.084275,121.265767,False
C0C630,大溪,2025-01-20,24.882853,121.265547,False
C0C650,平鎮,2025-01-20,24.897503,121.214636,False
C0C660,楊梅,2025-01-20,24.912375,121.143047,False
C0C670,龍潭,2025-01-20,24.870056,121.221389,False
C0C680,龜山,2025-01-20,25.02846,121.38656,False
C0C700,中壢,2025-01-20,24.977661,121.256375,False
C0C710,大溪永福,2025-01-20,24.892936,121.324975,False
C0C720,竹圍,2025-01-20,25.112692,121.239824,False
C0C730,中大臨海站,2025-01-20,24.966126,121.008581,False
C0C740,觀音工業區,2025-01-20,25.064764,121.114856,False
C0C750,新興坑尾,2025-01-20,25.0061,121.0971,False
C0D360,梅花,2025-01-20,24.678347,121.208558,False
C0D430,峨眉,2025-01-20,24.6905,121.017189,False
C0D480,打鐵坑,2025-01-20,24.849664,121.150789,False
C0D540,橫山,2025-01-20,24.71116,121.11693,False
C0D550,雪霸,2025-01-20,24.526972,121.11605,False
C0D560,竹東,2025-01-20,24.767147,121.057881,False
C0D580,寶山,2025-01-20,24.735006,121.025192,False
C0D590,新豐,2025-01-20,24.87068,120.97721,False
C0D650,湖口,2025-01-20,24.904794,121.043628,False
C0D660,新竹市東區,2025-01-20,24.798681,120.986942,False
C0D670,海天一線,2025-01-20,24.831986,120.914438,False
C0D680,香山濕地,2025-01-20,24.783581,120.914988,False
C0D690,外湖,2025-01-20,24.917735,120.968711,False
C0D700,關西,2025-01-20,24.7977,121.1732,False
C0E420,竹南,2025-01-20,24.708978,120.888897,False
C0E430,南庄,2025-01-20,24.601775,121.000214,False
C0E550,明德,2025-01-20,24.583486,120.885411,True
C0E590,通霄,2025-01-20,24.471892,120.704622,False
C0E610,馬都安,2025-01-20,24.451272,120.930192,False
C0E730,頭份,2025-01-20,24.688247,120.912206,False
C0E740,造橋,2025-01-20,24.637056,120.864778,False
C0E750,苗栗,2025-01-20,24.564569,120.824575,False
C0E780,銅鑼,2025-01-20,24.489681,120.790853,True
C0E791,卓蘭,2025-01-20,24.3126,120.8244,False
C0E810,西湖,2025-01-20,24.562947,120.7485,False
C0E820,獅潭,2025-01-20,24.539133,120.920042,False
C0E830,苑裡,2025-01-20,24.439714,120.653053,False
C0E850,大河,2025-01-20,24.618069,120.948578,False
C0E870,高鐵苗栗,2025-01-20,24.60725,120.826094,False
C0E910,海埔,2025-01-20,24.648767,120.772435,False
C0E920,通霄漁港,2025-01-20,24.498589,120.673876,False
C0E930,龍鳳,2025-01-20,24.700034,120.859125,False
C0F0A0,雪山圈谷,2025-01-20,24.388594,121.236339,False
C0F0B0,石岡,2025-01-20,24.276061,120.777644,True
C0F0C0,中坑,2025-01-20,24.248517,120.903319,False
C0F0D0,審馬陣,2025-01-20,24.381675,121.4203,False
C0F0E0,南湖圈谷,2025-01-20,24.363714,121.444667,False
C0F850,東勢,2025-01-20,24.246428,120.833047,True
C0F970,大坑,2025-01-20,24.173142,120.722289,False
C0F9I0,神岡,2025-01-20,24.272481,120.658314,False
C0F9K0,大安,2025-01-20,24.345061,120.588025,False
C0F9L0,后里,2025-01-20,24.310436,120.729725,False
C0F9M0,豐原,2025-01-20,24.254322,120.720692,False
C0F9N0,大里,2025-01-20,24.092464,120.701378,False
C0F9O0,潭子,2025-01-20,24.213106,120.703933,False
C0F9P0,清水,2025-01-20,24.312297,120.562242,False
C0F9Q0,外埔,2025-01-20,24.347817,120.705686,False
C0F9R0,龍井,2025-01-20,24.184536,120.528972,False
C0F9S0,烏日,2025-01-20,24.107058,120.624103,False
C0F9T0,西屯,2025-01-20,24.179494,120.641275,False
C0F9U0,南屯,2025-01-20,24.137006,120.637969,False
C0F9V0,新社,2025-01-20,24.200172,120.815806,False
C0F9X0,大雅(中科園區),2025-01-20,24.21528,120.62445,False
C0F9Y0,桃山,2025-01-20,24.432739,121.303808,False
C0F9Z0,雪山東峰,2025-01-20,24.388792,121.268675,False
C0FA10,松柏,2025-01-20,24.429115,120.617482,False
C0FA20,溫寮,2025-01-20,24.372177,120.583125,False
C0FA30,梧棲,2025-01-20,24.256003,120.523381,False
C0FA40,臺中電廠,2025-01-20,24.2146,120.4907,False
C0FA50,霧峰,2025-01-20,24.0419,120.6995,True
C0G620,芬園,2025-01-20,24.015678,120.6213,True
C0G650,員林,2025-01-20,23.946503,120.585597,True
C0G660,溪湖,2025-01-20,23.94835,120.479122,True
C0G720,溪州,2025-01-20,23.851589,120.499093,False
C0G730,二林,2025-01-20,23.903325,120.376081,False
C0G740,大城,2025-01-20,23.852487,120.320935,False
C0G770,福興,2025-01-20,24.041289,120.437669,False
C0G780,秀水,2025-01-20,24.03405,120.503869,False
C0G800,埔鹽,2025-01-20,24.000394,120.431683,False
C0G810,埔心,2025-01-20,23.947633,120.525456,True
C0G820,田尾,2025-01-20,23.901669,120.509389,True
C0G830,埤頭,2025-01-20,23.866003,120.452806,False
C0G860,社頭,2025-01-20,23.897647,120.5862,True
C0G880,二水,2025-01-20,23.810742,120.6173,True
C0G890,伸港,2025-01-20,24.148933,120.484403,False
C0G900,線西,2025-01-20,24.143358,120.443536,False
C0G910,花壇,2025-01-20,24.032076,120.549461,True
C0G920,永靖,2025-01-20,23.924703,120.547533,False
C0G940,竹塘,2025-01-20,23.848253,120.386764,False
C0G950,防潮門,2025-01-20,24.1835,120.4871,False
C0G960,福寶,2025-01-20,24.0443,120.3814,False
C0G970,三豐,2025-01-20,23.882,120.2895,False
C0H890,埔里,2025-01-20,23.972169,120.952425,True
C0H960,草屯,2025-01-20,23.973672,120.68085,False
C0H990,昆陽,2025-01-20,24.121322,121.273642,False
C0H9A0,神木村,2025-01-20,23.532742,120.843667,False
C0H9C0,合歡山,2025-01-20,24.143442,121.272547,False
C0I010,廬山,2025-01-20,24.033311,121.181808,False
C0I080,信義,2025-01-20,23.689694,120.851036,False
C0I110,竹山,2025-01-20,23.761225,120.688156,True
C0I360,水里,2025-01-20,23.812553,120.849792,True
C0I370,魚池,2025-01-20,23.895703,120.94135,False
C0I380,集集,2025-01-20,23.828206,120.801467,True
C0I390,仁愛,2025-01-20,24.022122,121.132206,False
C0I410,名間,2025-01-20,23.837053,120.701447,True
C0I420,國姓,2025-01-20,24.037803,120.855072,True
C0I460,南投,2025-01-20,23.911469,120.687331,True
C0I480,梅峰,2025-01-20,24.085272,121.173572,False
C0I490,萬大林道,2025-01-20,23.928228,121.091411,False
C0I520,玉山風口,2025-01-20,23.470489,120.955994,False
C0I530,小奇萊,2025-01-20,24.131764,121.295717,False
C0I540,奇萊稜線,2025-01-20,24.109231,121.326456,False
C0K250,崙背,2025-01-20,23.75555,120.318925,False
C0K280,四湖,2025-01-20,23.630414,120.227125,False
C0K291,宜梧,2025-01-20,23.536281,120.169329,False
C0K330,虎尾,2025-01-20,23.719183,120.442036,False
C0K390,土庫,2025-01-20,23.679029,120.395574,False
C0K400,斗六,2025-01-20,23.720583,120.541127,False
C0K410,北港,2025-01-20,23.573957,120.292802,False
C0K420,西螺,2025-01-20,23.800407,120.467394,False
C0K430,褒忠,2025-01-20,23.690938,120.303634,False
C0K440,二崙,2025-01-20,23.772797,120.408944,False
C0K450,大埤,2025-01-20,23.646074,120.431537,False
C0K460,斗南,2025-01-20,23.678734,120.478359,False
C0K470,林內,2025-01-20,23.748675,120.609642,True
C0K480,莿桐,2025-01-20,23.761192,120.502372,False
C0K500,元長,2025-01-20,23.64981,120.315024,False
C0K510,水林,2025-01-20,23.572924,120.24597,False
C0K530,臺西,2025-01-20,23.701547,120.197559,False
C0K550,蔦松,2025-01-20,23.514319,120.229736,False
C0K560,棋山,2025-01-20,23.68645,120.603417,True
C0K580,高鐵雲林,2025-01-20,23.737456,120.417944,False
C0K590,雲林東勢,2025-01-20,23.674192,120.255721,False
C0K600,箔子寮,2025-01-20,23.6197,120.14,False
C0M520,東後寮,2025-01-20,23.369908,120.248065,True
C0M530,奮起湖,2025-01-20,23.493903,120.699253,False
C0M640,中埔,2025-01-20,23.42538,120.5229,True
C0M650,朴子,2025-01-20,23.43463,120.23902,True
C0M660,溪口,2025-01-20,23.604131,120.403569,False
C0M670,大林,2025-01-20,23.600616,120.45841,False
C0M680,太保,2025-01-20,23.455062,120.331455,False
C0M690,水上,2025-01-20,23.419734,120.388909,True
C0M700,竹崎,2025-01-20,23.526178,120.555508,True
C0M710,東石,2025-01-20,23.458927,120.15385,False
C0M720,番路,2025-01-20,23.464657,120.554156,True
C0M730,嘉義市東區,2025-01-20,23.457673,120.460531,False
C0M740,六腳,2025-01-20,23.492871,120.290625,False
C0M750,布袋,2025-01-20,23.380878,120.167789,False
C0M760,民雄,2025-01-20,23.551754,120.428457,False
C0M770,嘉義梅山,2025-01-20,23.585398,120.555587,True
C0M780,鹿草,2025-01-20,23.41134,120.30835,False
C0M790,新港,2025-01-20,23.553269,120.345728,False
C0M800,茶山,2025-01-20,23.299075,120.664767,True
C0M810,里佳,2025-01-20,23.389125,120.716647,False
C0M820,達邦,2025-01-20,23.453994,120.749517,False
C0M850,表湖,2025-01-20,23.24186,120.64166,True
C0M860,新美,2025-01-20,23.338017,120.683169,True
C0M880,好美里,2025-01-20,23.3364,120.138,False
C0N010,鯤鯓國小,2025-01-20,23.1879,120.0889,False
C0N020,城西,2025-01-20,23.0568,120.0956,True
C0N030,四草,2025-01-20,23.0235,120.1116,True
C0N040,蘆竹溝,2025-01-20,23.2344,120.0961,False
C0N050,蚵寮,2025-01-20,23.301,120.1104,False
C0O830,北寮,2025-01-20,23.079561,120.495008,True
C0O840,王爺宮,2025-01-20,23.222064,120.40085,True
C0O860,大內,2025-01-20,23.11885,120.36083,True
C0O900,善化,2025-01-20,23.112883,120.297219,True
C0O960,崎頂,2025-01-20,22.959547,120.369317,True
C0O970,虎頭埤,2025-01-20,23.021375,120.347878,True
C0O980,新市,2025-01-20,23.061614,120.298197,True
C0O990,媽廟,2025-01-20,22.99175,120.293525,True
C0R100,尾寮山,2025-01-20,22.833111,120.683889,False
C0R130,阿禮,2025-01-20,22.742908,120.743678,False
C0R140,瑪家,2025-01-20,22.682903,120.686639,False
C0R150,三地門,2025-01-20,22.709889,120.639944,False
C0R160,鹽埔,2025-01-20,22.739558,120.530778,True
C0R190,赤山,2025-01-20,22.592333,120.614306,True
C0R220,潮州,2025-01-20,22.534361,120.54,True
C0R240,來義,2025-01-20,22.527306,120.625111,True
C0R260,春日,2025-01-20,22.370361,120.628306,True
C0R270,琉球嶼,2025-01-20,22.332244,120.362236,True
C0R280,檳榔,2025-01-20,22.076078,120.836777,False
C0R320,車城,2025-01-20,22.0744,120.716247,False
C0R341,牡丹,2025-01-20,22.130036,120.792639,True
C0R350,貓鼻頭,2025-01-20,21.921774,120.7358,False
C0R440,大漢山,2025-01-20,22.405264,120.753181,False
C0R470,高樹,2025-01-20,22.826389,120.600806,True
C0R480,長治,2025-01-20,22.693128,120.542622,True
C0R490,九如,2025-01-20,22.7405,120.490503,True
C0R520,崁頂,2025-01-20,22.514781,120.506914,True
C0R540,佳冬,2025-01-20,22.419456,120.552375,True
C0R550,新埤,2025-01-20,22.467947,120.582894,False
C0R560,新園,2025-01-20,22.5434,120.461558,False
C0R570,麟洛,2025-01-20,22.65078,120.52719,True
C0R580,南州,2025-01-20,22.48591,120.50274,True
C0R590,里港,2025-01-20,22.77919,120.49459,True
C0R600,舊泰武,2025-01-20,22.588194,120.664944,False
C0R620,墾雷,2025-01-20,21.900836,120.855269,True
C0R640,東港,2025-01-20,22.46247,120.44074,True
C0R650,竹田,2025-01-20,22.58486,120.54344,True
C0R660,枋寮,2025-01-20,22.367722,120.590647,True
C0R670,楓港,2025-01-20,22.190131,120.692156,False
C0R680,佳樂水,2025-01-20,21.993578,120.861633,False
C0R690,墾丁,2025-01-20,21.966756,120.810269,True
C0R700,枋山,2025-01-20,22.246844,120.661086,False
C0R710,龍磐,2025-01-20,21.931672,120.838942,False
C0R720,旭海,2025-01-20,22.205403,120.887614,False
C0R730,大坪頂,2025-01-20,22.024633,120.69355,True
C0R741,獅子,2025-01-20,22.202308,120.705236,False
C0R750,四林格山,2025-01-20,22.076989,120.802439,False
C0R760,南仁湖,2025-01-20,22.084681,120.863353,False
C0R770,保力,2025-01-20,22.071122,120.764111,False
C0R780,滿州,2025-01-20,22.024403,120.839892,False
C0R790,九棚,2025-01-20,22.14195,120.889281,False
C0R800,丹路,2025-01-20,22.204481,120.750989,False
C0R810,內獅,2025-01-20,22.305064,120.642986,True
C0R820,白鷺,2025-01-20,22.454275,120.666219,True
C0R830,高士,2025-01-20,22.121825,120.836781,False
C0R840,牡丹池山,2025-01-20,22.168389,120.841225,False
C0R850,林邊,2025-01-20,22.4634,120.5339,True
C0R860,鼻頭,2025-01-20,22.1043,120.8979,False
C0R870,興海,2025-01-20,21.9752,120.8439,False
C0R880,後壁湖,2025-01-20,21.9457,120.7457,False
C0R890,山海,2025-01-20,21.9878,120.7091,False
C0R900,竹坑,2025-01-20,22.1385,120.7022,False
C0R910,下寮,2025-01-20,22.3929,120.5548,True
C0R920,塭仔,2025-01-20,22.4169,120.5197,True
C0R930,萬丹,2025-01-20,22.5885,120.4851,False
C0R940,加祿堂,2025-01-20,22.3363,120.6217,True
C0S660,下馬,2025-01-20,23.150427,121.070312,False
C0S690,太麻里,2025-01-20,22.60902,120.98533,False
C0S700,知本,2025-01-20,22.684866,121.005642,True
C0S710,鹿野,2025-01-20,22.917711,121.122994,False
C0S730,綠島,2025-01-20,22.6672,121.47533,True
C0S740,池上,2025-01-20,23.119628,121.209469,True
C0S750,向陽,2025-01-20,23.248397,120.986133,False
C0S760,紅石,2025-01-20,23.069131,121.126219,False
C0S770,大溪山,2025-01-20,22.478475,120.943325,False
C0S790,金崙,2025-01-20,22.538122,120.966875,True
C0S810,東河,2025-01-20,22.972672,121.303986,False
C0S830,長濱,2025-01-20,23.286817,121.411975,False
C0S840,南田,2025-01-20,22.279725,120.889208,True
C0S890,關山,2025-01-20,23.0395,121.175017,True
C0S900,蘭嶼高中,2025-01-20,22.04909,121.51214,False
C0S910,蘭嶼燈塔,2025-01-20,22.081197,121.503117,False
C0S920,金峰嘉蘭,2025-01-20,22.594789,120.960825,True
C0S930,延平,2025-01-20,22.902581,121.084058,True
C0S940,石寧山,2025-01-20,23.223772,121.406639,False
C0S950,七塊厝,2025-01-20,22.954453,121.229922,False
C0S960,香蘭,2025-01-20,22.587569,120.993375,False
C0S970,加津林,2025-01-20,22.416211,120.926942,False
C0S980,勝林山,2025-01-20,22.430439,120.8938,False
C0S990,山豬窟,2025-01-20,22.318619,120.857372,False
C0SA00,歷坵,2025-01-20,22.520969,120.89185,True
C0SA10,檳榔四格山,2025-01-20,22.810031,121.109308,True
C0SA20,金崙山,2025-01-20,22.567419,120.959667,False
C0SA30,都歷,2025-01-20,23.020333,121.323642,True
C0SA40,瑞和,2025-01-20,22.974361,121.156697,True
C0SA60,知本（水試所）,2025-01-20,22.702394,121.082761,False
C0SA80,土坂,2025-01-20,22.453108,120.887572,True
C0SA90,達仁林場,2025-01-20,22.264347,120.823972,False
C0T790,大禹嶺,2025-01-20,24.186117,121.316086,False
C0T820,天祥,2025-01-20,24.179597,121.495639,False
C0T870,鯉魚潭,2025-01-20,23.935639,121.508944,True
C0T900,西林,2025-01-20,23.8119,121.441458,False
C0T960,光復,2025-01-20,23.660694,121.424964,True
C0T9A0,月眉山,2025-01-20,23.809928,121.539828,False
C0T9B0,水源,2025-01-20,23.991861,121.537169,False
C0T9D0,和中,2025-01-20,24.26676,121.74103,True
C0T9E0,大坑,2025-01-20,23.880628,121.581981,False
C0T9F0,水璉,2025-01-20,23.797131,121.542514,False
C0T9G0,鳳林山,2025-01-20,23.735269,121.420131,False
C0T9H0,加路蘭山,2025-01-20,23.682947,121.5274,True
C0T9I0,豐濱,2025-01-20,23.583897,121.514806,True
C0T9M0,靜浦,2025-01-20,23.455167,121.495028,True
C0T9N0,富里,2025-01-20,23.171639,121.249378,False
C0U520,雙連埤,2025-01-20,24.753033,121.641303,False
C0U600,礁溪,2025-01-20,24.817539,121.765608,False
C0U650,玉蘭,2025-01-20,24.675286,121.587061,False
C0U710,太平山,2025-01-20,24.505486,121.525656,False
C0U720,南山,2025-01-20,24.43742,121.38167,False
C0U750,龜山島,2025-01-20,24.841667,121.953133,False
C0U760,東澳,2025-01-20,24.52196,121.83318,True
C0U770,南澳,2025-01-20,24.44935,121.81022,False
C0U780,五結,2025-01-20,24.68637,121.79794,False
C0U860,頭城,2025-01-20,24.85323,121.8308,False
C0U870,大礁溪,2025-01-20,24.791042,121.675047,False
C0U880,北關,2025-01-20,24.9072,121.8734,False
C0U890,三星,2025-01-20,24.66812,121.65302,False
C0U900,內城,2025-01-20,24.71813,121.68766,False
C0U910,冬山,2025-01-20,24.63373,121.7937,False
C0U940,羅東,2025-01-20,24.68184,121.74934,False
C0U950,鶯子嶺,2025-01-20,24.89754,121.79244,False
C0U960,翠峰湖,2025-01-20,24.510856,121.608044,False
C0U970,大福,2025-01-20,24.80064,121.81389,False
C0U980,坪林石牌,2025-01-20,24.86478,121.77396,False
C0U990,員山,2025-01-20,24.74435,121.72247,False
C0UA00,土場,2025-01-20,24.576533,121.495333,False
C0UA10,鴛鴦湖,2025-01-20,24.590269,121.412228,False
C0UA20,多加屯,2025-01-20,24.368614,121.373189,False
C0UA30,白嶺,2025-01-20,24.527819,121.519031,False
C0UA40,西德山,2025-01-20,24.560647,121.752608,False
C0UA50,西帽山,2025-01-20,24.555361,121.802628,False
C0UA60,樟樹山,2025-01-20,24.41393,121.78325,False
C0UA70,桃源谷,2025-01-20,24.962606,121.888875,False
C0UA80,大溪漁港,2025-01-20,24.941801,121.902955,False
C0UA90,石城,2025-01-20,24.980444,121.951214,False
C0UB00,淡江大學蘭陽校園,2025-01-20,24.823239,121.730383,False
C0UB10,蘇澳,2025-01-20,24.5969,121.8571,False
C0UB20,壯圍,2025-01-20,24.7359,121.8163,False
C0V210,復興,2025-01-20,23.222403,120.806089,True
C0V310,美濃,2025-01-20,22.898742,120.519153,False
C0V350,溪埔,2025-01-20,22.738578,120.446797,True
C0V360,內門,2025-01-20,22.975481,120.466769,True
C0V370,古亭坑,2025-01-20,22.893178,120.401947,True
C0V400,阿公店,2025-01-20,22.804194,120.355528,True
C0V440,鳳山,2025-01-20,22.646653,120.356122,True
C0V450,鳳森,2025-01-20,22.545064,120.392592,True
C0V490,新興,2025-01-20,22.627422,120.298803,False
C0V530,阿蓮,2025-01-20,22.883208,120.327508,False
C0V610,梓官,2025-01-20,22.760558,120.267211,True
C0V620,永安,2025-01-20,22.82315,120.236856,True
C0V630,茄萣,2025-01-20,22.906642,120.182608,True
C0V640,湖內,2025-01-20,22.887139,120.2445,False
C0V650,彌陀,2025-01-20,22.783806,120.246361,True
C0V660,岡山,2025-01-20,22.797078,120.294958,False
C0V680,仁武,2025-01-20,22.701083,120.347722,True
C0V690,鼓山,2025-01-20,22.623325,120.275575,True
C0V700,三民,2025-01-20,22.645017,120.311233,True
C0V710,苓雅,2025-01-20,22.622742,120.330669,True
C0V720,林園,2025-01-20,22.507747,120.394511,False
C0V730,大寮,2025-01-20,22.605614,120.395717,True
C0V740,旗山,2025-01-20,22.888614,120.483597,True
C0V750,路竹,2025-01-20,22.854997,120.259439,False
C0V760,橋頭,2025-01-20,22.757806,120.30575,False
C0V770,大社,2025-01-20,22.730306,120.346639,True
C0V790,萬山,2025-01-20,22.905944,120.688056,True
C0V800,六龜,2025-01-20,22.997889,120.633583,True
C0V810,左營,2025-01-20,22.67491,120.28491,True
C0V820,小林,2025-01-20,23.148408,120.63325,True
C0V840,鳳鼻頭,2025-01-20,22.5083,120.3591,True
C0V850,蚵仔寮,2025-01-20,22.7256,120.2527,True
C0V860,南寮,2025-01-20,22.7616,120.2339,True
C0V870,文安,2025-01-20,22.8025,120.2164,True
C0V880,興達,2025-01-20,22.8778,120.2127,True
C0V890,前鎮,2025-01-20,22.5718,120.3117,False
C0V900,汕尾,2025-01-20,22.4782,120.4151,True
C0W110,東莒,2025-01-20,25.9652,119.98069,False
C0W120,西嶼,2025-01-20,23.5626,119.468436,False
C0W130,花嶼,2025-01-20,23.40007,119.32276,False
C0W140,金沙,2025-01-20,24.488292,118.408778,False
C0W150,金寧,2025-01-20,24.457703,118.328989,False
C0W160,烏坵,2025-01-20,24.9944,119.44956,False
C0W180,七美,2025-01-20,23.219333,119.444892,False
C0W190,望安,2025-01-20,23.380564,119.494075,False
C0W200,湖西,2025-01-20,23.596314,119.67275,False
C0W220,北竿,2025-01-20,26.220358,119.974881,False
C0X050,東河,2025-01-20,23.296598,120.385608,False
C0X060,下營,2025-01-20,23.22695,120.256261,False
C0X080,佳里,2025-01-20,23.173039,120.145086,True
C0X100,臺南市北區,2025-01-20,23.010394,120.194228,True
C0X110,臺南市南區,2025-01-20,22.961189,120.188378,False
C0X120,麻豆,2025-01-20,23.183289,120.248611,True
C0X130,官田,2025-01-20,23.193217,120.315422,True
C0X140,西港,2025-01-20,23.125608,120.203108,True
C0X150,安定,2025-01-20,23.102614,120.227839,True
C0X160,仁德,2025-01-20,22.968258,120.257689,True
C0X170,關廟,2025-01-20,22.963017,120.327797,True
C0X180,山上,2025-01-20,23.0757,120.363253,True
C0X190,安平,2025-01-20,22.993161,120.152181,False
C0X200,左鎮,2025-01-20,23.056758,120.408522,True
C0X210,白河,2025-01-20,23.347466,120.414427,True
C0X220,學甲,2025-01-20,23.230367,120.182187,True
C0X230,鹽水,2025-01-20,23.272621,120.247641,True
C0X240,關子嶺,2025-01-20,23.331169,120.508025,True
C0X250,新營,2025-01-20,23.310689,120.316681,False
C0X260,後壁,2025-01-20,23.366358,120.362326,False
C0X280,將軍,2025-01-20,23.214999,120.13577,False
C0X290,北門,2025-01-20,23.267772,120.125481,False
C0X300,鹿寮,2025-01-20,23.386047,120.477331,True
C0X320,柳營,2025-01-20,23.253328,120.375253,True
C0Z020,明里,2025-01-20,23.208717,121.262342,True
C0Z050,佳心,2025-01-20,23.34567,121.21316,False
C0Z061,玉里,2025-01-20,23.3215,121.339656,True
C0Z070,舞鶴,2025-01-20,23.46811,121.37407,True
C0Z080,富源,2025-01-20,23.587642,121.378225,True
C0Z100,東華,2025-01-20,23.89525,121.549833,True
C0Z150,吉安光華,2025-01-20,23.930925,121.595153,False
C0Z160,鳳林,2025-01-20,23.746114,121.453411,False
C0Z170,卓溪,2025-01-20,23.3443,121.3029,False
C0Z180,新城,2025-01-20,24.040486,121.604878,False
C0Z190,富世,2025-01-20,24.14743,121.6297,False
C0Z200,萬榮,2025-01-20,23.709219,121.420106,False
C0Z210,瑞穗,2025-01-20,23.5239,121.39021,True
C0Z220,和平林道,2025-01-20,24.343922,121.656317,False
C0Z230,和平,2025-01-20,24.30717,121.77007,False
C0Z250,瑞穗林道,2025-01-20,23.49284,121.30688,False
C0Z270,蕃薯寮,2025-01-20,23.73835,121.540108,False
C0Z280,德武,2025-01-20,23.47426,121.41071,True
C0Z290,赤柯山,2025-01-20,23.36893,121.38293,False
C0Z300,東里,2025-01-20,23.26853,121.30547,True
C0Z310,清水斷崖,2025-01-20,24.218294,121.689142,False
C0Z320,清水林道,2025-01-20,23.27125,121.188272,False
C0Z330,安通山,2025-01-20,23.290728,121.348528,True
C2A540,四堵,2025-01-20,24.8926,121.745736,False
C2A560,福山,2025-01-20,24.776203,121.502811,False
C2A650,火燒寮,2025-01-20,25.002719,121.742892,False
C2A660,瑞芳,2025-01-20,25.113169,121.801147,False
C2A880,福隆,2025-01-20,25.017842,121.942083,False
C2A920,富貴角,2025-01-20,25.263783,121.565258,False
C2C410,中央大學,2025-01-20,24.967652,121.185165,False
C2D720,關西工作站,2025-01-20,24.757275,121.184792,False
C2D730,寶山農場,2025-01-20,24.732444,120.976153,False
C2D740,屯原,2025-01-20,24.067969,121.209389,False
C2E520,大湖,2025-01-20,24.414939,120.870872,True
C2E540,龍溪,2025-01-20,24.606489,120.783933,False
C2E880,三義,2025-01-20,24.405478,120.749819,False
C2E970,八甲,2025-01-20,24.535811,120.795983,False
C2F000,大肚,2025-01-20,24.15295,120.572117,False
C2F860,梨山,2025-01-20,24.247522,121.243669,False
C2F930,大甲,2025-01-20,24.347667,120.640403,False
C2F990,摩天嶺,2025-01-20,24.322458,120.936819,False
C2F9A0,中竹林,2025-01-20,24.103556,120.751061,True
C2FA00,烏石坑,2025-01-20,24.273503,120.947617,False
C2FB50,出雲,2025-01-20,24.206469,120.902794,False
C2FB60,頭櫃山,2025-01-20,24.129842,120.858925,False
C2G640,鹿港,2025-01-20,24.0753,120.430481,False
C2G840,北斗,2025-01-20,23.877586,120.514222,True
C2G870,芳苑,2025-01-20,23.922303,120.320025,False
C2G980,田頭村,2025-01-20,23.8263,120.444175,False
C2G9A0,畜試所彰化,2025-01-20,23.86045,120.557964,False
C2H950,中寮,2025-01-20,23.884447,120.766406,True
C2H9D0,三隻寮,2025-01-20,24.093078,120.861578,False
C2H9E0,國姓南港,2025-01-20,23.911108,120.846556,False
C2H9F0,柑林,2025-01-20,24.018658,120.847072,False
C2H9G0,百勝,2025-01-20,24.051142,120.909361,False
C2H9H0,苗改南投蜂場,2025-01-20,23.852589,120.693481,False
C2H9J0,中台,2025-01-20,23.9996,120.938739,False
C2H9L0,馬烈霸,2025-01-20,24.1512,121.201772,False
C2H9M0,發祥,2025-01-20,24.154094,121.164517,False
C2H9N0,仁愛東眼,2025-01-20,24.026875,121.1205,False
C2H9P0,伊拿谷,2025-01-20,23.963211,121.088264,False
C2H9Q0,北東眼山,2025-01-20,24.120939,121.189303,False
C2H9R0,卓社,2025-01-20,23.887894,121.000086,False
C2H9S0,龍南,2025-01-20,23.953536,120.833183,False
C2H9T0,名間竹圍,2025-01-20,23.859914,120.637572,False
C2H9U0,鳳鵬,2025-01-20,23.763919,120.788061,False
C2H9W0,大坪頂農水,2025-01-20,24.043122,120.932781,False
C2I090,鳳凰,2025-01-20,23.728081,120.787347,False
C2K240,草嶺,2025-01-20,23.59555,120.693461,False
C2K610,草嶺石壁,2025-01-20,23.602469,120.707731,False
C2K620,馬光農場,2025-01-20,23.721453,120.378864,False
C2K630,荷苞,2025-01-20,23.657717,120.595144,False
C2M410,馬頭山,2025-01-20,23.324361,120.582017,True
C2M620,瑞里,2025-01-20,23.545133,120.675197,False
C2M910,嘉義大學,2025-01-20,23.471325,120.485903,False
C2M920,朴子農改,2025-01-20,23.469889,120.259383,False
C2M930,石卓,2025-01-20,23.478744,120.702264,False
C2M940,日野賀,2025-01-20,23.434056,120.727169,False
C2M950,太和,2025-01-20,23.538372,120.702961,False
C2M960,外寮,2025-01-20,23.562643,120.665688,False
C2M970,碧湖,2025-01-20,23.568632,120.624165,False
C2N160,西拉雅風管處,2025-01-20,23.189481,120.335297,True
C2O810,曾文,2025-01-20,23.219681,120.497328,True
C2O930,玉井,2025-01-20,23.126042,120.46055,True
C2O950,安南,2025-01-20,23.076694,120.144861,True
C2R170,屏東,2025-01-20,22.66027,120.49403,False
C2R970,屏科大,2025-01-20,22.648275,120.619247,False
C2V250,甲仙,2025-01-20,23.080106,120.591758,True
C2V260,月眉,2025-01-20,22.971003,120.539853,True
C2V310,美濃,2025-01-20,22.898792,120.51907,False
C2W030,金門農試所,2025-01-20,24.448431,118.451786,False
C2W230,畜試所澎湖,2025-01-20,23.628342,119.513206,False
CAG100,王功漁港,2025-01-20,23.96824,120.32586,False
CAH030,茶改場竹圍站,2025-01-20,23.860083,120.637528,True
CAJ050,海口故事園區,2025-01-20,23.57543,120.14121,False
CAL110,布袋國中,2025-01-20,23.35893,120.18026,True
CAN130,水試所海水繁養殖中心,2025-01-20,23.120802,120.07968,False
CAN140,六官養殖協會,2025-01-20,23.22881,120.29962,True
CAQ030,崎峰國小,2025-01-20,22.42565,120.49521,True
E2H360,蓮華池,2025-01-20,23.918333,120.885278,False
E2HA20,林試畢祿溪站,2025-01-20,24.226944,121.308522,False
E2K600,四湖植物園,2025-01-20,23.676986,120.163433,False
E2P980,林試六龜中心,2025-01-20,22.991703,120.645722,True
E2S960,林試太麻里2,2025-01-20,22.598,120.99775,False
E2S980,林試太麻里1,2025-01-20,22.598922,120.980044,True
G2AI50,關渡,2025-01-20,25.11575,121.492,False
G2F820,農試所(霧峰),2025-01-20,24.031261,120.688133,True
G2L020,農試嘉義分所,2025-01-20,23.485028,120.473806,True
G2M350,農試溪口農場,2025-01-20,23.58565,120.408111,False
G2P820,農試鳳山分所,2025-01-20,22.646611,120.356083,True
K2E360,苗栗農改場,2025-01-20,24.495722,120.829111,True
K2E710,苗改生物防治研究中心,2025-01-20,24.422861,120.871833,True
K2F750,種苗改良場,2025-01-20,24.225972,120.800917,True
U2H480,溪頭,2025-01-20,23.670306,120.798194,False
U2HA30,臺大和社,2025-01-20,23.590856,120.888864,True
U2HA40,臺大內茅埔,2025-01-20,23.689722,120.851117,False
U2HA50,臺大竹山,2025-01-20,23.756972,120.681556,True
V2C250,八德合作社,2025-01-20,24.93775,121.266389,False
V2C260,八德蔬果,2025-01-20,24.978508,121.281819,False
V2K610,大庄合作社,2025-01-20,23.8068,120.367939,False
V2K620,麥寮合作社,2025-01-20,23.753836,120.294783,False
